{
"type": "FeatureCollection",                                                                      
"features": [
{ "type": "Feature", "id": 0, "properties": { "ObjectID": 1, "Loc_name": "EU_Street_Addr.NLD_Streets", "Status": "M", "Score": 100, "Match_type": "A", "Side": "L", "X": 6.89649184507, "Y": 52.2133393449, "Match_addr": "Java Straat 6, Enschede, 7512", "Country": "NETHERLANDS", "Admin_Name": null, "ARC_Addres": "Javastraat 6", "ARC_City": "Enschede", "ARC_Postco": "7512ZJ", "ARC_Countr": "Netherlands", "Name": "Al-Ummah", "Type": "Islamitisch", "capacity": "174", "address": "Javastraat 6", "Postcode": "7512ZJ", "City": "Enschede", "Country_1": "Netherlands" }, "geometry": { "type": "Point", "coordinates": [ 6.896491845422759, 52.213339344776557 ] } }
,
{ "type": "Feature", "id": 1, "properties": { "ObjectID": 2, "Loc_name": "EU_Street_Addr.NLD_Streets", "Status": "M", "Score": 100, "Match_type": "A", "Side": "R", "X": 6.91196349631, "Y": 52.213939992299998, "Match_addr": "Pastoor Geertman Straat 10, Enschede, 7535", "Country": "NETHERLANDS", "Admin_Name": null, "ARC_Addres": "Pastoor Geertmanstraat 10", "ARC_City": "Enschede", "ARC_Postco": "7535BZ", "ARC_Countr": "Netherlands", "Name": "Alfonsusschool", "Type": "Katholiek", "capacity": "330", "address": "Pastoor Geertmanstraat 10", "Postcode": "7535BZ", "City": "Enschede", "Country_1": "Netherlands" }, "geometry": { "type": "Point", "coordinates": [ 6.911963496529779, 52.213939992966687 ] } }
,
{ "type": "Feature", "id": 2, "properties": { "ObjectID": 3, "Loc_name": "EU_PostCity.NLDPostCity", "Status": "M", "Score": 100, "Match_type": "A", "Side": null, "X": 6.84228801568, "Y": 52.186453995100003, "Match_addr": "Enschede, 7546", "Country": "NETHERLANDS", "Admin_Name": null, "ARC_Addres": "Runenberghoek?5?", "ARC_City": "Enschede", "ARC_Postco": "7546EG", "ARC_Countr": "Netherlands", "Name": "Averbeke, De OBS", "Type": "Openbaar", "capacity": "200", "address": "Runenberghoek?5?", "Postcode": "7546EG", "City": "Enschede", "Country_1": "Netherlands" }, "geometry": { "type": "Point", "coordinates": [ 6.842288015991471, 52.186453994899409 ] } }
,
{ "type": "Feature", "id": 3, "properties": { "ObjectID": 4, "Loc_name": "EU_PostCity.NLDPostCity", "Status": "M", "Score": 100, "Match_type": "A", "Side": null, "X": 6.85844654857, "Y": 52.211969099699999, "Match_addr": "Enschede, 7545", "Country": "NETHERLANDS", "Admin_Name": null, "ARC_Addres": "Tomatenstraat?27?", "ARC_City": "Enschede", "ARC_Postco": "7545WP", "ARC_Countr": "Netherlands", "Name": "Beatrix, Koningin CBS", "Type": "Protestants-Christelijk", "capacity": "170", "address": "Tomatenstraat?27?", "Postcode": "7545WP", "City": "Enschede", "Country_1": "Netherlands" }, "geometry": { "type": "Point", "coordinates": [ 6.858446548580048, 52.211969099961152 ] } }
,
{ "type": "Feature", "id": 4, "properties": { "ObjectID": 5, "Loc_name": "EU_Street_Name.NLD_StreetName", "Status": "M", "Score": 100, "Match_type": "A", "Side": null, "X": 6.87025509956, "Y": 52.193925064, "Match_addr": "Het Bijvank", "Country": "NETHERLANDS", "Admin_Name": null, "ARC_Addres": "Het Bijvank 111", "ARC_City": "Enschede", "ARC_Postco": "7544DA", "ARC_Countr": "Netherlands", "Name": "Bijvank, Het OBS", "Type": "Openbaar", "capacity": "180", "address": "Het Bijvank 111", "Postcode": "7544DA", "City": "Enschede", "Country_1": "Netherlands" }, "geometry": { "type": "Point", "coordinates": [ 6.870255099183737, 52.193925064094458 ] } }
,
{ "type": "Feature", "id": 5, "properties": { "ObjectID": 6, "Loc_name": "EU_Street_Addr.NLD_Streets", "Status": "T", "Score": 100, "Match_type": "A", "Side": "R", "X": 6.89960876259, "Y": 52.1936821623, "Match_addr": "Veldhoflanden 92, Enschede, 7542", "Country": "NETHERLANDS", "Admin_Name": null, "ARC_Addres": "Veldhoflanden 92", "ARC_City": "Enschede", "ARC_Postco": "7542LX", "ARC_Countr": "Netherlands", "Name": "Bomansschool, Godfried", "Type": "Katholiek", "capacity": "300", "address": "Veldhoflanden 92", "Postcode": "7542LX", "City": "Enschede", "Country_1": "Netherlands" }, "geometry": { "type": "Point", "coordinates": [ 6.899608762476703, 52.193682161710967 ] } }
,
{ "type": "Feature", "id": 6, "properties": { "ObjectID": 7, "Loc_name": "EU_Street_Addr.NLD_Streets", "Status": "M", "Score": 100, "Match_type": "A", "Side": "R", "X": 6.88503618072, "Y": 52.240117850799997, "Match_addr": "Zaan Straat 10, Enschede, 7523", "Country": "NETHERLANDS", "Admin_Name": null, "ARC_Addres": "Zaanstraat 10", "ARC_City": "Enschede", "ARC_Postco": "7523HC", "ARC_Countr": "Netherlands", "Name": "Bonifatiusschool", "Type": "Katholiek", "capacity": "260", "address": "Zaanstraat 10", "Postcode": "7523HC", "City": "Enschede", "Country_1": "Netherlands" }, "geometry": { "type": "Point", "coordinates": [ 6.885036180689497, 52.24011785069996 ] } }
,
{ "type": "Feature", "id": 7, "properties": { "ObjectID": 8, "Loc_name": "EU_Street_Addr.NLD_Streets", "Status": "M", "Score": 100, "Match_type": "A", "Side": "L", "X": 6.90520494344, "Y": 52.221349866, "Match_addr": "Reudink Straat 15, Enschede, 7511", "Country": "NETHERLANDS", "Admin_Name": null, "ARC_Addres": "Reudinkstraat 15", "ARC_City": "Enschede", "ARC_Postco": "7511ZG", "ARC_Countr": "Netherlands", "Name": "Bothoven, De Freinet OBS", "Type": "Openbaar", "capacity": "250", "address": "Reudinkstraat 15", "Postcode": "7511ZG", "City": "Enschede", "Country_1": "Netherlands" }, "geometry": { "type": "Point", "coordinates": [ 6.905204943091462, 52.221349865995592 ] } }
,
{ "type": "Feature", "id": 8, "properties": { "ObjectID": 9, "Loc_name": "EU_Street_Addr.NLD_Streets", "Status": "T", "Score": 100, "Match_type": "A", "Side": "R", "X": 6.88293284986, "Y": 52.186928537599997, "Match_addr": "de Posten 147, Enschede, 7544", "Country": "NETHERLANDS", "Admin_Name": null, "ARC_Addres": "De Posten 147", "ARC_City": "Enschede", "ARC_Postco": "7544LR", "ARC_Countr": "Netherlands", "Name": "Broekheurne, De OBS", "Type": "Openbaar", "capacity": "300", "address": "De Posten 147", "Postcode": "7544LR", "City": "Enschede", "Country_1": "Netherlands" }, "geometry": { "type": "Point", "coordinates": [ 6.882932849025337, 52.186928537456652 ] } }
,
{ "type": "Feature", "id": 9, "properties": { "ObjectID": 10, "Loc_name": "EU_Street_Addr.NLD_Streets", "Status": "M", "Score": 100, "Match_type": "A", "Side": "L", "X": 6.87694944083, "Y": 52.209991291900003, "Match_addr": "Haaksberger Straat 416, Enschede, 7545", "Country": "NETHERLANDS", "Admin_Name": null, "ARC_Addres": "Haaksbergerstraat 416", "ARC_City": "Enschede", "ARC_Postco": "7545GA", "ARC_Countr": "Netherlands", "Name": "Bron, GBS De", "Type": "Gereformeerd", "capacity": "215", "address": "Haaksbergerstraat 416", "Postcode": "7545GA", "City": "Enschede", "Country_1": "Netherlands" }, "geometry": { "type": "Point", "coordinates": [ 6.876949440129806, 52.209991292068594 ] } }
,
{ "type": "Feature", "id": 10, "properties": { "ObjectID": 11, "Loc_name": "EU_Street_Name.NLD_StreetName", "Status": "M", "Score": 100, "Match_type": "A", "Side": null, "X": 6.89773944397, "Y": 52.233346935299998, "Match_addr": "Bosuil Straat", "Country": "NETHERLANDS", "Admin_Name": null, "ARC_Addres": "Bosuilstraat 7", "ARC_City": "Enschede", "ARC_Postco": "7523BJ", "ARC_Countr": "Netherlands", "Name": "Buren, Anna van CBS , Bosuilstraat", "Type": "Protestants-Christelijk", "capacity": "200", "address": "Bosuilstraat 7", "Postcode": "7523BJ", "City": "Enschede", "Country_1": "Netherlands" }, "geometry": { "type": "Point", "coordinates": [ 6.897739444297088, 52.233346935181032 ] } }
,
{ "type": "Feature", "id": 11, "properties": { "ObjectID": 12, "Loc_name": "EU_Street_Addr.NLD_Streets", "Status": "M", "Score": 100, "Match_type": "A", "Side": "R", "X": 6.86081394725, "Y": 52.230866496, "Match_addr": "Zevenster Straat 3, Enschede, 7521", "Country": "NETHERLANDS", "Admin_Name": null, "ARC_Addres": "Zevensterstraat 3", "ARC_City": "Enschede", "ARC_Postco": "7521GN", "ARC_Countr": "Netherlands", "Name": "Buren, Anna van CBS, Zevensterstraat", "Type": "Protestants-Christelijk", "capacity": "110", "address": "Zevensterstraat 3", "Postcode": "7521GN", "City": "Enschede", "Country_1": "Netherlands" }, "geometry": { "type": "Point", "coordinates": [ 6.860813947272334, 52.230866496206261 ] } }
,
{ "type": "Feature", "id": 12, "properties": { "ObjectID": 13, "Loc_name": "EU_Street_Addr.NLD_Streets", "Status": "M", "Score": 100, "Match_type": "A", "Side": "L", "X": 6.90905237143, "Y": 52.210291934600001, "Match_addr": "Jp Coen Straat 9, Enschede, 7541", "Country": "NETHERLANDS", "Admin_Name": null, "ARC_Addres": "J.P. Coenstraat 9", "ARC_City": "Enschede", "ARC_Postco": "7541BP", "ARC_Countr": "Netherlands", "Name": "Drakensteyn, J.P. Coenstraat", "Type": "Protestants-Christelijk", "capacity": "220", "address": "J.P. Coenstraat 9", "Postcode": "7541BP", "City": "Enschede", "Country_1": "Netherlands" }, "geometry": { "type": "Point", "coordinates": [ 6.909052371335861, 52.210291934523639 ] } }
,
{ "type": "Feature", "id": 13, "properties": { "ObjectID": 14, "Loc_name": "EU_Street_Addr.NLD_Streets", "Status": "M", "Score": 100, "Match_type": "A", "Side": "L", "X": 6.9745567657, "Y": 52.210242789299997, "Match_addr": "Ouverture Straat 68, Enschede, 7534", "Country": "NETHERLANDS", "Admin_Name": null, "ARC_Addres": "Ouverturestraat 68", "ARC_City": "Enschede", "ARC_Postco": "7534CP", "ARC_Countr": "Netherlands", "Name": "Drakensteyn, Ouverturestraat", "Type": "Protestants-Christelijk", "capacity": "250", "address": "Ouverturestraat 68", "Postcode": "7534CP", "City": "Enschede", "Country_1": "Netherlands" }, "geometry": { "type": "Point", "coordinates": [ 6.97455676572531, 52.210242789272741 ] } }
,
{ "type": "Feature", "id": 14, "properties": { "ObjectID": 15, "Loc_name": "EU_Street_Addr.NLD_Streets", "Status": "T", "Score": 72, "Match_type": "A", "Side": null, "X": 6.90331856292, "Y": 52.193377868299997, "Match_addr": "Vastertlanden, Enschede, 7542", "Country": "NETHERLANDS", "Admin_Name": null, "ARC_Addres": "Vastertlanden?169?", "ARC_City": "Enschede", "ARC_Postco": "7542LR", "ARC_Countr": "Netherlands", "Name": "Drakensteyn, Vastertlanden CBS", "Type": "Protestants-Christelijk", "capacity": "250", "address": "Vastertlanden?169?", "Postcode": "7542LR", "City": "Enschede", "Country_1": "Netherlands" }, "geometry": { "type": "Point", "coordinates": [ 6.903318562974334, 52.19337786800844 ] } }
,
{ "type": "Feature", "id": 15, "properties": { "ObjectID": 16, "Loc_name": "EU_Street_Addr.NLD_Streets", "Status": "M", "Score": 100, "Match_type": "A", "Side": "R", "X": 6.95054356848, "Y": 52.214725670100002, "Match_addr": "Esmarke Laan 207, Enschede, 7534", "Country": "NETHERLANDS", "Admin_Name": null, "ARC_Addres": "Esmarkelaan 207", "ARC_City": "Enschede", "ARC_Postco": "7534JZ", "ARC_Countr": "Netherlands", "Name": "Eschmarke, De I.B.S.", "Type": "Interconfessioneel", "capacity": "400", "address": "Esmarkelaan 207", "Postcode": "7534JZ", "City": "Enschede", "Country_1": "Netherlands" }, "geometry": { "type": "Point", "coordinates": [ 6.950543568922001, 52.214725670369091 ] } }
,
{ "type": "Feature", "id": 16, "properties": { "ObjectID": 17, "Loc_name": "EU_Street_Addr.NLD_Streets", "Status": "M", "Score": 100, "Match_type": "A", "Side": "R", "X": 6.95078916006, "Y": 52.215773582399997, "Match_addr": "Esmarke Laan 201, Enschede, 7534", "Country": "NETHERLANDS", "Admin_Name": null, "ARC_Addres": "Esmarkelaan 201", "ARC_City": "Enschede", "ARC_Postco": "7534JZ", "ARC_Countr": "Netherlands", "Name": "Esmarke, de OBS", "Type": "Openbaar", "capacity": "400", "address": "Esmarkelaan 201", "Postcode": "7534JZ", "City": "Enschede", "Country_1": "Netherlands" }, "geometry": { "type": "Point", "coordinates": [ 6.950789160278362, 52.215773582880729 ] } }
,
{ "type": "Feature", "id": 17, "properties": { "ObjectID": 18, "Loc_name": "EU_Street_Addr.NLD_Streets", "Status": "M", "Score": 100, "Match_type": "A", "Side": "R", "X": 6.90255780966, "Y": 52.232281477100003, "Match_addr": "Tichel Weg 7, Enschede, 7523", "Country": "NETHERLANDS", "Admin_Name": null, "ARC_Addres": "Tichelweg 7", "ARC_City": "Enschede", "ARC_Postco": "7523AL", "ARC_Countr": "Netherlands", "Name": "ESV", "Type": "Algemeen bijzonder", "capacity": "250", "address": "Tichelweg 7", "Postcode": "7523AL", "City": "Enschede", "Country_1": "Netherlands" }, "geometry": { "type": "Point", "coordinates": [ 6.902557809382643, 52.232281476896617 ] } }
,
{ "type": "Feature", "id": 18, "properties": { "ObjectID": 19, "Loc_name": "EU_Street_Name.NLD_StreetName", "Status": "M", "Score": 67, "Match_type": "A", "Side": null, "X": 6.87564806722, "Y": 52.203915912900001, "Match_addr": "BelgiÃ« Laan", "Country": "NETHERLANDS", "Admin_Name": null, "ARC_Addres": "Belgielaan 75", "ARC_City": "Enschede", "ARC_Postco": "7543ZJ", "ARC_Countr": "Netherlands", "Name": "Europa, OBS Dalton", "Type": "Openbaar", "capacity": "107", "address": "Belgielaan 75", "Postcode": "7543ZJ", "City": "Enschede", "Country_1": "Netherlands" }, "geometry": { "type": "Point", "coordinates": [ 6.875648067194106, 52.203915913106414 ] } }
,
{ "type": "Feature", "id": 19, "properties": { "ObjectID": 20, "Loc_name": "EU_Street_Addr.NLD_Streets", "Status": "M", "Score": 100, "Match_type": "A", "Side": "L", "X": 6.90721884087, "Y": 52.230040354899998, "Match_addr": "Elshof Plein 7, Enschede, 7531", "Country": "NETHERLANDS", "Admin_Name": null, "ARC_Addres": "Elshofplein 7", "ARC_City": "Enschede", "ARC_Postco": "7531ZD", "ARC_Countr": "Netherlands", "Name": "Fontein, GBS De", "Type": "Gereformeerd", "capacity": "180", "address": "Elshofplein 7", "Postcode": "7531ZD", "City": "Enschede", "Country_1": "Netherlands" }, "geometry": { "type": "Point", "coordinates": [ 6.907218840777091, 52.230040354708422 ] } }
,
{ "type": "Feature", "id": 20, "properties": { "ObjectID": 21, "Loc_name": "EU_Street_Addr.NLD_Streets", "Status": "M", "Score": 100, "Match_type": "A", "Side": "L", "X": 6.97306461333, "Y": 52.221132333299998, "Match_addr": "Kerk Straat 155, Enschede, 7532", "Country": "NETHERLANDS", "Admin_Name": null, "ARC_Addres": "Kerkstraat 155", "ARC_City": "Enschede", "ARC_Postco": "7532AS", "ARC_Countr": "Netherlands", "Name": "Gerardus, St.", "Type": "Katholiek", "capacity": "260", "address": "Kerkstraat 155", "Postcode": "7532AS", "City": "Enschede", "Country_1": "Netherlands" }, "geometry": { "type": "Point", "coordinates": [ 6.97306461331226, 52.221132333486537 ] } }
,
{ "type": "Feature", "id": 21, "properties": { "ObjectID": 22, "Loc_name": "EU_Street_Addr.NLD_Streets", "Status": "M", "Score": 100, "Match_type": "A", "Side": "R", "X": 6.96551918171, "Y": 52.220665541899997, "Match_addr": "Bults Weg 170, Enschede, 7532", "Country": "NETHERLANDS", "Admin_Name": null, "ARC_Addres": "Bultsweg 170", "ARC_City": "Enschede", "ARC_Postco": "7532XJ", "ARC_Countr": "Netherlands", "Name": "Glanerbrug-Noord OBS", "Type": "Openbaar", "capacity": "225", "address": "Bultsweg 170", "Postcode": "7532XJ", "City": "Enschede", "Country_1": "Netherlands" }, "geometry": { "type": "Point", "coordinates": [ 6.96551918187663, 52.220665542185884 ] } }
,
{ "type": "Feature", "id": 22, "properties": { "ObjectID": 23, "Loc_name": "EU_Street_Addr.NLD_Streets", "Status": "M", "Score": 100, "Match_type": "A", "Side": "L", "X": 6.97399276589, "Y": 52.2098009893, "Match_addr": "Ouverture Straat 70, Enschede, 7534", "Country": "NETHERLANDS", "Admin_Name": null, "ARC_Addres": "Ouverturestraat 70", "ARC_City": "Enschede", "ARC_Postco": "7534CP", "ARC_Countr": "Netherlands", "Name": "Glanerbrug-Zuid OBS", "Type": "Openbaar", "capacity": "270", "address": "Ouverturestraat 70", "Postcode": "7534CP", "City": "Enschede", "Country_1": "Netherlands" }, "geometry": { "type": "Point", "coordinates": [ 6.973992765807168, 52.209800989231951 ] } }
,
{ "type": "Feature", "id": 23, "properties": { "ObjectID": 24, "Loc_name": "EU_Street_Addr.NLD_Streets", "Status": "M", "Score": 100, "Match_type": "A", "Side": "L", "X": 6.97144488621, "Y": 52.214569111199999, "Match_addr": "Jacob Roggeveen Straat 45, Enschede, 7534", "Country": "NETHERLANDS", "Admin_Name": null, "ARC_Addres": "Jacob Roggeveenstraat 45", "ARC_City": "Enschede", "ARC_Postco": "7534CD", "ARC_Countr": "Netherlands", "Name": "Glanerbrug-Zuid, Roggeveenstraat", "Type": "Openbaar", "capacity": "*", "address": "Jacob Roggeveenstraat 45", "Postcode": "7534CD", "City": "Enschede", "Country_1": "Netherlands" }, "geometry": { "type": "Point", "coordinates": [ 6.971444885774133, 52.214569110994319 ] } }
,
{ "type": "Feature", "id": 24, "properties": { "ObjectID": 25, "Loc_name": "EU_Street_Addr.NLD_Streets", "Status": "M", "Score": 100, "Match_type": "A", "Side": "L", "X": 6.89606530286, "Y": 52.224562308700001, "Match_addr": "Nieuwe School Weg 51, Enschede, 7514", "Country": "NETHERLANDS", "Admin_Name": null, "ARC_Addres": "Nieuwe Schoolweg 51", "ARC_City": "Enschede", "ARC_Postco": "7514CE", "ARC_Countr": "Netherlands", "Name": "Globe, I.O.K. De", "Type": "Interzuilair", "capacity": "50", "address": "Nieuwe Schoolweg 51", "Postcode": "7514CE", "City": "Enschede", "Country_1": "Netherlands" }, "geometry": { "type": "Point", "coordinates": [ 6.896065303279556, 52.224562309035434 ] } }
,
{ "type": "Feature", "id": 25, "properties": { "ObjectID": 26, "Loc_name": "EU_Street_Addr.NLD_Streets", "Status": "M", "Score": 100, "Match_type": "A", "Side": "L", "X": 6.85249219143, "Y": 52.192921328600001, "Match_addr": "Ravenhorst Hoek 38, Enschede, 7546", "Country": "NETHERLANDS", "Admin_Name": null, "ARC_Addres": "Ravenhorsthoek 38", "ARC_City": "Enschede", "ARC_Postco": "7546EA", "ARC_Countr": "Netherlands", "Name": "Heijdenschool, Weth. AF van der", "Type": "Katholiek", "capacity": "160", "address": "Ravenhorsthoek 38", "Postcode": "7546EA", "City": "Enschede", "Country_1": "Netherlands" }, "geometry": { "type": "Point", "coordinates": [ 6.852492191383362, 52.192921328079592 ] } }
,
{ "type": "Feature", "id": 26, "properties": { "ObjectID": 27, "Loc_name": "EU_Street_Addr.NLD_Streets", "Status": "M", "Score": 100, "Match_type": "A", "Side": "R", "X": 6.85403611291, "Y": 52.189518600699998, "Match_addr": "Bekspring Hoek 170, Enschede, 7546", "Country": "NETHERLANDS", "Admin_Name": null, "ARC_Addres": "Bekspringhoek 170", "ARC_City": "Enschede", "ARC_Postco": "7546CL", "ARC_Countr": "Netherlands", "Name": "Helmerhoek OBS", "Type": "Openbaar", "capacity": "370", "address": "Bekspringhoek 170", "Postcode": "7546CL", "City": "Enschede", "Country_1": "Netherlands" }, "geometry": { "type": "Point", "coordinates": [ 6.85403611326899, 52.189518600189501 ] } }
,
{ "type": "Feature", "id": 27, "properties": { "ObjectID": 28, "Loc_name": "EU_Street_Addr.NLD_Streets", "Status": "M", "Score": 100, "Match_type": "A", "Side": "R", "X": 6.89808556081, "Y": 52.226533033499997, "Match_addr": "Staring Straat 15, Enschede, 7514", "Country": "NETHERLANDS", "Admin_Name": null, "ARC_Addres": "Staringstraat 15", "ARC_City": "Enschede", "ARC_Postco": "7514DE", "ARC_Countr": "Netherlands", "Name": "International School Twente", "Type": "Openbaar", "capacity": null, "address": "Staringstraat 15", "Postcode": "7514DE", "City": "Enschede", "Country_1": "Netherlands" }, "geometry": { "type": "Point", "coordinates": [ 6.898085560970571, 52.226533033867724 ] } }
,
{ "type": "Feature", "id": 28, "properties": { "ObjectID": 29, "Loc_name": "EU_PostCity.NLDPostCity", "Status": "M", "Score": 100, "Match_type": "A", "Side": null, "X": 6.85844654857, "Y": 52.211969099699999, "Match_addr": "Enschede, 7545", "Country": "NETHERLANDS", "Admin_Name": null, "ARC_Addres": "Spinnerstraat 29 a", "ARC_City": "Enschede", "ARC_Postco": "7545TP", "ARC_Countr": "Netherlands", "Name": "Janschool, St, Spinnerstraat", "Type": "Katholiek", "capacity": null, "address": "Spinnerstraat 29 a", "Postcode": "7545TP", "City": "Enschede", "Country_1": "Netherlands" }, "geometry": { "type": "Point", "coordinates": [ 6.858446548580048, 52.211969099961152 ] } }
,
{ "type": "Feature", "id": 29, "properties": { "ObjectID": 30, "Loc_name": "EU_Street_Addr.NLD_Streets", "Status": "M", "Score": 100, "Match_type": "A", "Side": "R", "X": 6.87718331993, "Y": 52.210025005600002, "Match_addr": "Haaksberger Straat 255, Enschede, 7545", "Country": "NETHERLANDS", "Admin_Name": null, "ARC_Addres": "Haaksbergerstraat 255", "ARC_City": "Enschede", "ARC_Postco": "7545GH", "ARC_Countr": "Netherlands", "Name": "Janschool, St.", "Type": "Katholiek", "capacity": "330", "address": "Haaksbergerstraat 255", "Postcode": "7545GH", "City": "Enschede", "Country_1": "Netherlands" }, "geometry": { "type": "Point", "coordinates": [ 6.877183319615426, 52.210025005852799 ] } }
,
{ "type": "Feature", "id": 30, "properties": { "ObjectID": 31, "Loc_name": "EU_Street_Addr.NLD_Streets", "Status": "M", "Score": 100, "Match_type": "A", "Side": "L", "X": 6.9169904156, "Y": 52.231602477599999, "Match_addr": "Florapark Straat 155, Enschede, 7531", "Country": "NETHERLANDS", "Admin_Name": null, "ARC_Addres": "Floraparkstraat 155", "ARC_City": "Enschede", "ARC_Postco": "7531XG", "ARC_Countr": "Netherlands", "Name": "Joannesschool, Paus", "Type": "Katholiek", "capacity": "500", "address": "Floraparkstraat 155", "Postcode": "7531XG", "City": "Enschede", "Country_1": "Netherlands" }, "geometry": { "type": "Point", "coordinates": [ 6.916990415293242, 52.231602477073352 ] } }
,
{ "type": "Feature", "id": 31, "properties": { "ObjectID": 32, "Loc_name": "EU_Street_Addr.NLD_Streets", "Status": "M", "Score": 100, "Match_type": "A", "Side": "L", "X": 6.91854554523, "Y": 52.220378114299997, "Match_addr": "Drebbel Straat 15, Enschede, 7533", "Country": "NETHERLANDS", "Admin_Name": null, "ARC_Addres": "Drebbelstraat 15", "ARC_City": "Enschede", "ARC_Postco": "7533WV", "ARC_Countr": "Netherlands", "Name": "Kubus, De", "Type": "Katholiek", "capacity": "200", "address": "Drebbelstraat 15", "Postcode": "7533WV", "City": "Enschede", "Country_1": "Netherlands" }, "geometry": { "type": "Point", "coordinates": [ 6.918545545429367, 52.220378114368714 ] } }
,
{ "type": "Feature", "id": 32, "properties": { "ObjectID": 33, "Loc_name": "EU_Street_Addr.NLD_Streets", "Status": "M", "Score": 100, "Match_type": "A", "Side": "R", "X": 6.90592968907, "Y": 52.2275185544, "Match_addr": "Rozen Straat 98, Enschede, 7514", "Country": "NETHERLANDS", "Admin_Name": null, "ARC_Addres": "Rozenstraat 98", "ARC_City": "Enschede", "ARC_Postco": "7514ZR", "ARC_Countr": "Netherlands", "Name": "La Res, OBS", "Type": "Openbaar", "capacity": "200", "address": "Rozenstraat 98", "Postcode": "7514ZR", "City": "Enschede", "Country_1": "Netherlands" }, "geometry": { "type": "Point", "coordinates": [ 6.905929688728406, 52.227518554114909 ] } }
,
{ "type": "Feature", "id": 33, "properties": { "ObjectID": 34, "Loc_name": "EU_Street_Addr.NLD_Streets", "Status": "M", "Score": 100, "Match_type": "A", "Side": "L", "X": 6.88248213377, "Y": 52.195937644700003, "Match_addr": "Het Lang 78, Enschede, 7544", "Country": "NETHERLANDS", "Admin_Name": null, "ARC_Addres": "Het Lang 78", "ARC_City": "Enschede", "ARC_Postco": "7544XC", "ARC_Countr": "Netherlands", "Name": "Lang, Het OBS", "Type": "Openbaar", "capacity": "300", "address": "Het Lang 78", "Postcode": "7544XC", "City": "Enschede", "Country_1": "Netherlands" }, "geometry": { "type": "Point", "coordinates": [ 6.882482133105952, 52.195937644273329 ] } }
,
{ "type": "Feature", "id": 34, "properties": { "ObjectID": 35, "Loc_name": "EU_Street_Addr.NLD_Streets", "Status": "M", "Score": 100, "Match_type": "A", "Side": "L", "X": 6.9144905009, "Y": 52.249626039200002, "Match_addr": "Scholten Reimer Straat 8, Enschede, 7524", "Country": "NETHERLANDS", "Admin_Name": null, "ARC_Addres": "Scholten Reimerstraat 8", "ARC_City": "Enschede", "ARC_Postco": "7524CS", "ARC_Countr": "Netherlands", "Name": "Liduinaschool, St.", "Type": "Katholiek", "capacity": "240", "address": "Scholten Reimerstraat 8", "Postcode": "7524CS", "City": "Enschede", "Country_1": "Netherlands" }, "geometry": { "type": "Point", "coordinates": [ 6.914490500600607, 52.249626038974725 ] } }
,
{ "type": "Feature", "id": 35, "properties": { "ObjectID": 36, "Loc_name": "EU_Street_Addr.NLD_Streets", "Status": "M", "Score": 100, "Match_type": "A", "Side": "R", "X": 6.91932603917, "Y": 52.223396210799997, "Match_addr": "Lage Bothof Straat 341, Enschede, 7533", "Country": "NETHERLANDS", "Admin_Name": null, "ARC_Addres": "Lage Bothofstraat 341", "ARC_City": "Enschede", "ARC_Postco": "7533AS", "ARC_Countr": "Netherlands", "Name": "Lipper, De OBS", "Type": "Openbaar", "capacity": "110", "address": "Lage Bothofstraat 341", "Postcode": "7533AS", "City": "Enschede", "Country_1": "Netherlands" }, "geometry": { "type": "Point", "coordinates": [ 6.919326039139605, 52.223396211220063 ] } }
,
{ "type": "Feature", "id": 36, "properties": { "ObjectID": 37, "Loc_name": "EU_Street_Addr.NLD_Streets", "Status": "M", "Score": 100, "Match_type": "A", "Side": "R", "X": 6.91303024791, "Y": 52.250833612500003, "Match_addr": "Dorps Straat 104, Enschede, 7524", "Country": "NETHERLANDS", "Admin_Name": null, "ARC_Addres": "Dorpsstraat 104", "ARC_City": "Enschede", "ARC_Postco": "7524CK", "ARC_Countr": "Netherlands", "Name": "Lonneker, ODBS", "Type": "Openbaar", "capacity": "150", "address": "Dorpsstraat 104", "Postcode": "7524CK", "City": "Enschede", "Country_1": "Netherlands" }, "geometry": { "type": "Point", "coordinates": [ 6.913030248039263, 52.250833612622785 ] } }
,
{ "type": "Feature", "id": 37, "properties": { "ObjectID": 38, "Loc_name": "EU_Street_Addr.NLD_Streets", "Status": "M", "Score": 100, "Match_type": "A", "Side": "L", "X": 6.79596150784, "Y": 52.205141336600001, "Match_addr": "Saffier Straat 30, Enschede, 7548", "Country": "NETHERLANDS", "Admin_Name": null, "ARC_Addres": "Saffierstraat 30", "ARC_City": "Enschede", "ARC_Postco": "7548CD", "ARC_Countr": "Netherlands", "Name": "Marcellinus, De", "Type": "Katholiek", "capacity": "110", "address": "Saffierstraat 30", "Postcode": "7548CD", "City": "Enschede", "Country_1": "Netherlands" }, "geometry": { "type": "Point", "coordinates": [ 6.795961508294113, 52.205141337397436 ] } }
,
{ "type": "Feature", "id": 38, "properties": { "ObjectID": 39, "Loc_name": "EU_Street_Addr.NLD_Streets", "Status": "M", "Score": 100, "Match_type": "A", "Side": "R", "X": 6.86748363288, "Y": 52.192491758599999, "Match_addr": "Geessink Brink 1, Enschede, 7544", "Country": "NETHERLANDS", "Admin_Name": null, "ARC_Addres": "Geessinkbrink 1", "ARC_City": "Enschede", "ARC_Postco": "7544CW", "ARC_Countr": "Netherlands", "Name": "Maurits, Prins CBS", "Type": "Protestants-Christelijk", "capacity": "210", "address": "Geessinkbrink 1", "Postcode": "7544CW", "City": "Enschede", "Country_1": "Netherlands" }, "geometry": { "type": "Point", "coordinates": [ 6.867483632405708, 52.192491757919072 ] } }
,
{ "type": "Feature", "id": 39, "properties": { "ObjectID": 40, "Loc_name": "EU_Street_Addr.NLD_Streets", "Status": "T", "Score": 100, "Match_type": "A", "Side": "R", "X": 6.88293051354, "Y": 52.1869206792, "Match_addr": "de Posten 145, Enschede, 7544", "Country": "NETHERLANDS", "Admin_Name": null, "ARC_Addres": "De Posten 145", "ARC_City": "Enschede", "ARC_Postco": "7544LR", "ARC_Countr": "Netherlands", "Name": "Mecklenburg CBS", "Type": "Protestants-Christelijk", "capacity": "110", "address": "De Posten 145", "Postcode": "7544LR", "City": "Enschede", "Country_1": "Netherlands" }, "geometry": { "type": "Point", "coordinates": [ 6.882930513486031, 52.186920679180787 ] } }
,
{ "type": "Feature", "id": 40, "properties": { "ObjectID": 41, "Loc_name": "EU_Street_Addr.NLD_Streets", "Status": "M", "Score": 100, "Match_type": "A", "Side": "R", "X": 6.80095663372, "Y": 52.203177477200001, "Match_addr": "Boekelerschool Pad 1, Enschede, 7548", "Country": "NETHERLANDS", "Admin_Name": null, "ARC_Addres": "Boekelerschoolpad 1", "ARC_City": "Enschede", "ARC_Postco": "7548AH", "ARC_Countr": "Netherlands", "Name": "Molenbeek-Boekelo OBS", "Type": "Openbaar", "capacity": "110", "address": "Boekelerschoolpad 1", "Postcode": "7548AH", "City": "Enschede", "Country_1": "Netherlands" }, "geometry": { "type": "Point", "coordinates": [ 6.800956634225145, 52.203177477989527 ] } }
,
{ "type": "Feature", "id": 41, "properties": { "ObjectID": 42, "Loc_name": "EU_Street_Addr.NLD_Streets", "Status": "M", "Score": 100, "Match_type": "A", "Side": "L", "X": 6.83304051386, "Y": 52.193742785600001, "Match_addr": "Lammerink Weg 10, Enschede, 7546", "Country": "NETHERLANDS", "Admin_Name": null, "ARC_Addres": "Lammerinkweg 10", "ARC_City": "Enschede", "ARC_Postco": "7546RD", "ARC_Countr": "Netherlands", "Name": "Molenbeek-Usselo OBS", "Type": "Openbaar", "capacity": "80", "address": "Lammerinkweg 10", "Postcode": "7546RD", "City": "Enschede", "Country_1": "Netherlands" }, "geometry": { "type": "Point", "coordinates": [ 6.833040513294009, 52.193742785008965 ] } }
,
{ "type": "Feature", "id": 42, "properties": { "ObjectID": 43, "Loc_name": "EU_Street_Addr.NLD_Streets", "Status": "M", "Score": 100, "Match_type": "A", "Side": "L", "X": 6.89266484939, "Y": 52.225426160600001, "Match_addr": "Dokter Benthem Straat 14, Enschede, 7514", "Country": "NETHERLANDS", "Admin_Name": null, "ARC_Addres": "Dr. Benthemstraat 14", "ARC_City": "Enschede", "ARC_Postco": "7514CM", "ARC_Countr": "Netherlands", "Name": "Montessori Zeggelt, Het OBS", "Type": "Openbaar", "capacity": "320", "address": "Dr. Benthemstraat 14", "Postcode": "7514CM", "City": "Enschede", "Country_1": "Netherlands" }, "geometry": { "type": "Point", "coordinates": [ 6.892664849774917, 52.22542616090459 ] } }
,
{ "type": "Feature", "id": 43, "properties": { "ObjectID": 44, "Loc_name": "EU_Street_Addr.NLD_Streets", "Status": "M", "Score": 100, "Match_type": "A", "Side": "L", "X": 6.85458455143, "Y": 52.230694382700001, "Match_addr": "Olieslag Weg 138, Enschede, 7521", "Country": "NETHERLANDS", "Admin_Name": null, "ARC_Addres": "Olieslagweg 138", "ARC_City": "Enschede", "ARC_Postco": "7521JG", "ARC_Countr": "Netherlands", "Name": "Noorderkroon, Vrijeschool Enschede", "Type": "Algemeen bijzonder", "capacity": "80", "address": "Olieslagweg 138", "Postcode": "7521JG", "City": "Enschede", "Country_1": "Netherlands" }, "geometry": { "type": "Point", "coordinates": [ 6.854584551318737, 52.230694382157651 ] } }
,
{ "type": "Feature", "id": 44, "properties": { "ObjectID": 45, "Loc_name": "EU_Street_Addr.NLD_Streets", "Status": "M", "Score": 100, "Match_type": "A", "Side": "R", "X": 6.85367995085, "Y": 52.193254553199999, "Match_addr": "Ravenhorst Hoek 34, Enschede, 7546", "Country": "NETHERLANDS", "Admin_Name": null, "ARC_Addres": "Ravenhorsthoek 34", "ARC_City": "Enschede", "ARC_Postco": "7546EA", "ARC_Countr": "Netherlands", "Name": "Oranje, Willem van CBS", "Type": "Protestants-Christelijk", "capacity": "190", "address": "Ravenhorsthoek 34", "Postcode": "7546EA", "City": "Enschede", "Country_1": "Netherlands" }, "geometry": { "type": "Point", "coordinates": [ 6.853679951168488, 52.19325455297178 ] } }
,
{ "type": "Feature", "id": 45, "properties": { "ObjectID": 46, "Loc_name": "EU_Street_Addr.NLD_Streets", "Status": "M", "Score": 100, "Match_type": "A", "Side": "R", "X": 6.8572229076, "Y": 52.216269879899997, "Match_addr": "Adriaen Van de Velde Straat 17, Enschede, 7545", "Country": "NETHERLANDS", "Admin_Name": null, "ARC_Addres": "Adriaen van de Veldestr 17", "ARC_City": "Enschede", "ARC_Postco": "7545ZC", "ARC_Countr": "Netherlands", "Name": "Palet, Het OBS", "Type": "Openbaar", "capacity": "180", "address": "Adriaen van de Veldestr 17", "Postcode": "7545ZC", "City": "Enschede", "Country_1": "Netherlands" }, "geometry": { "type": "Point", "coordinates": [ 6.857222907644598, 52.216269880037828 ] } }
,
{ "type": "Feature", "id": 46, "properties": { "ObjectID": 47, "Loc_name": "EU_PostCity.NLDPostCity", "Status": "M", "Score": 100, "Match_type": "A", "Side": null, "X": 6.85833550118, "Y": 52.231074862900002, "Match_addr": "Enschede, 7521", "Country": "NETHERLANDS", "Admin_Name": null, "ARC_Addres": "Regulusstraat 8 ? 10", "ARC_City": "Enschede", "ARC_Postco": "7521DX", "ARC_Countr": "Netherlands", "Name": "Paulusschool", "Type": "Katholiek", "capacity": "260", "address": "Regulusstraat 8 ? 10", "Postcode": "7521DX", "City": "Enschede", "Country_1": "Netherlands" }, "geometry": { "type": "Point", "coordinates": [ 6.858335501195143, 52.23107486282521 ] } }
,
{ "type": "Feature", "id": 47, "properties": { "ObjectID": 48, "Loc_name": "EU_PostCity.NLDPostCity", "Status": "M", "Score": 100, "Match_type": "A", "Side": null, "X": 6.88251247667, "Y": 52.215522654700003, "Match_addr": "Enschede, 7513", "Country": "NETHERLANDS", "Admin_Name": null, "ARC_Addres": "Prinsestraat 10 + 10a", "ARC_City": "Enschede", "ARC_Postco": "7513AL", "ARC_Countr": "Netherlands", "Name": "Prinseschool, Internationale", "Type": "Openbaar", "capacity": "700", "address": "Prinsestraat 10 + 10a", "Postcode": "7513AL", "City": "Enschede", "Country_1": "Netherlands" }, "geometry": { "type": "Point", "coordinates": [ 6.882512476231227, 52.215522654947392 ] } }
,
{ "type": "Feature", "id": 48, "properties": { "ObjectID": 49, "Loc_name": "EU_Street_Name.NLD_StreetName", "Status": "M", "Score": 100, "Match_type": "A", "Side": null, "X": 6.90218363918, "Y": 52.190100640399997, "Match_addr": "Het Stroink", "Country": "NETHERLANDS", "Admin_Name": null, "ARC_Addres": "Het Stroink 60", "ARC_City": "Enschede", "ARC_Postco": "7542GT", "ARC_Countr": "Netherlands", "Name": "Regenboog, De", "Type": "Katholiek", "capacity": "150", "address": "Het Stroink 60", "Postcode": "7542GT", "City": "Enschede", "Country_1": "Netherlands" }, "geometry": { "type": "Point", "coordinates": [ 6.902183639257771, 52.19010064050758 ] } }
,
{ "type": "Feature", "id": 49, "properties": { "ObjectID": 50, "Loc_name": "EU_Street_Name.NLD_StreetName", "Status": "M", "Score": 100, "Match_type": "A", "Side": null, "X": 6.89773944397, "Y": 52.233346935299998, "Match_addr": "Bosuil Straat", "Country": "NETHERLANDS", "Admin_Name": null, "ARC_Addres": "Bosuilstraat 3", "ARC_City": "Enschede", "ARC_Postco": "7523BJ", "ARC_Countr": "Netherlands", "Name": "Roombeek, OBS Bosuilstraat", "Type": "Openbaar", "capacity": "220", "address": "Bosuilstraat 3", "Postcode": "7523BJ", "City": "Enschede", "Country_1": "Netherlands" }, "geometry": { "type": "Point", "coordinates": [ 6.897739444297088, 52.233346935181032 ] } }
,
{ "type": "Feature", "id": 50, "properties": { "ObjectID": 51, "Loc_name": "EU_Street_Addr.NLD_Streets", "Status": "M", "Score": 100, "Match_type": "A", "Side": "L", "X": 6.87627749295, "Y": 52.211680868599998, "Match_addr": "Spinner Straat 29, Enschede, 7545", "Country": "NETHERLANDS", "Admin_Name": null, "ARC_Addres": "Spinnerstraat 29", "ARC_City": "Enschede", "ARC_Postco": "7545TP", "ARC_Countr": "Netherlands", "Name": "Stadsveld het Pathmosschool", "Type": "Openbaar", "capacity": null, "address": "Spinnerstraat 29", "Postcode": "7545TP", "City": "Enschede", "Country_1": "Netherlands" }, "geometry": { "type": "Point", "coordinates": [ 6.876277492789882, 52.211680869049417 ] } }
,
{ "type": "Feature", "id": 51, "properties": { "ObjectID": 52, "Loc_name": "EU_Street_Addr.NLD_Streets", "Status": "M", "Score": 100, "Match_type": "A", "Side": "L", "X": 6.8658581177, "Y": 52.214198458, "Match_addr": "Elferinks Weg 106, Enschede, 7545", "Country": "NETHERLANDS", "Admin_Name": null, "ARC_Addres": "Elferinksweg 106", "ARC_City": "Enschede", "ARC_Postco": "7545KJ", "ARC_Countr": "Netherlands", "Name": "Stadsveld, Het OBS", "Type": "Openbaar", "capacity": "250", "address": "Elferinksweg 106", "Postcode": "7545KJ", "City": "Enschede", "Country_1": "Netherlands" }, "geometry": { "type": "Point", "coordinates": [ 6.865858117730284, 52.214198458117892 ] } }
,
{ "type": "Feature", "id": 52, "properties": { "ObjectID": 53, "Loc_name": "EU_Street_Addr.NLD_Streets", "Status": "M", "Score": 100, "Match_type": "A", "Side": "L", "X": 6.91416831492, "Y": 52.229729299100001, "Match_addr": "Dotterbloem Straat 75, Enschede, 7531", "Country": "NETHERLANDS", "Admin_Name": null, "ARC_Addres": "Dotterbloemstraat 75", "ARC_City": "Enschede", "ARC_Postco": "7531BA", "ARC_Countr": "Netherlands", "Name": "Stokhorst, Park", "Type": "Openbaar", "capacity": null, "address": "Dotterbloemstraat 75", "Postcode": "7531BA", "City": "Enschede", "Country_1": "Netherlands" }, "geometry": { "type": "Point", "coordinates": [ 6.914168314886297, 52.229729299003566 ] } }
,
{ "type": "Feature", "id": 53, "properties": { "ObjectID": 54, "Loc_name": "EU_Street_Addr.NLD_Streets", "Status": "M", "Score": 100, "Match_type": "A", "Side": "L", "X": 6.9256937411, "Y": 52.228235053600002, "Match_addr": "Hoge Boekeler Weg 135, Enschede, 7531", "Country": "NETHERLANDS", "Admin_Name": null, "ARC_Addres": "Hoge Boekelerweg 135", "ARC_City": "Enschede", "ARC_Postco": "7531EC", "ARC_Countr": "Netherlands", "Name": "Stokhorst, Park OBS", "Type": "Openbaar", "capacity": "200", "address": "Hoge Boekelerweg 135", "Postcode": "7531EC", "City": "Enschede", "Country_1": "Netherlands" }, "geometry": { "type": "Point", "coordinates": [ 6.92569374092875, 52.228235053868161 ] } }
,
{ "type": "Feature", "id": 54, "properties": { "ObjectID": 55, "Loc_name": "EU_Street_Name.NLD_StreetName", "Status": "M", "Score": 100, "Match_type": "A", "Side": null, "X": 6.90218363918, "Y": 52.190100640399997, "Match_addr": "Het Stroink", "Country": "NETHERLANDS", "Admin_Name": null, "ARC_Addres": "Het Stroink 66", "ARC_City": "Enschede", "ARC_Postco": "7542GT", "ARC_Countr": "Netherlands", "Name": "Stroink, Het ODBS", "Type": "Openbaar", "capacity": "260", "address": "Het Stroink 66", "Postcode": "7542GT", "City": "Enschede", "Country_1": "Netherlands" }, "geometry": { "type": "Point", "coordinates": [ 6.902183639257771, 52.19010064050758 ] } }
,
{ "type": "Feature", "id": 55, "properties": { "ObjectID": 56, "Loc_name": "EU_Street_Addr.NLD_Streets", "Status": "M", "Score": 100, "Match_type": "A", "Side": "R", "X": 6.89758023214, "Y": 52.238972776499999, "Match_addr": "Rijn Straat 15, Enschede, 7523", "Country": "NETHERLANDS", "Admin_Name": null, "ARC_Addres": "Rijnstraat 15", "ARC_City": "Enschede", "ARC_Postco": "7523GD", "ARC_Countr": "Netherlands", "Name": "Toermalijn, De", "Type": "Katholiek", "capacity": "170", "address": "Rijnstraat 15", "Postcode": "7523GD", "City": "Enschede", "Country_1": "Netherlands" }, "geometry": { "type": "Point", "coordinates": [ 6.897580231922291, 52.238972776335629 ] } }
,
{ "type": "Feature", "id": 56, "properties": { "ObjectID": 57, "Loc_name": "EU_Street_Addr.NLD_Streets", "Status": "M", "Score": 100, "Match_type": "A", "Side": "L", "X": 6.85823216128, "Y": 52.212505364, "Match_addr": "Gerard Terborgh Straat 1, Enschede, 7545", "Country": "NETHERLANDS", "Admin_Name": null, "ARC_Addres": "Gerard Terborghstraat 1", "ARC_City": "Enschede", "ARC_Postco": "7545BV", "ARC_Countr": "Netherlands", "Name": "Triangel, De", "Type": "Katholiek", "capacity": "675", "address": "Gerard Terborghstraat 1", "Postcode": "7545BV", "City": "Enschede", "Country_1": "Netherlands" }, "geometry": { "type": "Point", "coordinates": [ 6.858232161000103, 52.212505363888624 ] } }
,
{ "type": "Feature", "id": 57, "properties": { "ObjectID": 58, "Loc_name": "EU_PostCity.NLDPostCity", "Status": "M", "Score": 100, "Match_type": "A", "Side": null, "X": 6.95467617397, "Y": 52.2090486755, "Match_addr": "Enschede, 7534", "Country": "NETHERLANDS", "Admin_Name": null, "ARC_Addres": "Sonatestraat 44 a", "ARC_City": "Enschede", "ARC_Postco": "7534XC", "ARC_Countr": "Netherlands", "Name": "Troubadour, De", "Type": "Katholiek", "capacity": "190", "address": "Sonatestraat 44 a", "Postcode": "7534XC", "City": "Enschede", "Country_1": "Netherlands" }, "geometry": { "type": "Point", "coordinates": [ 6.954676173980545, 52.209048675777467 ] } }
,
{ "type": "Feature", "id": 58, "properties": { "ObjectID": 59, "Loc_name": "EU_Street_Addr.NLD_Streets", "Status": "M", "Score": 100, "Match_type": "A", "Side": "R", "X": 6.86446870288, "Y": 52.230087504099998, "Match_addr": "Schietbaan Weg 30, Enschede, 7521", "Country": "NETHERLANDS", "Admin_Name": null, "ARC_Addres": "Schietbaanweg 30", "ARC_City": "Enschede", "ARC_Postco": "7521DB", "ARC_Countr": "Netherlands", "Name": "Twekkelerveld, OBS", "Type": "Openbaar", "capacity": "160", "address": "Schietbaanweg 30", "Postcode": "7521DB", "City": "Enschede", "Country_1": "Netherlands" }, "geometry": { "type": "Point", "coordinates": [ 6.864468702966519, 52.23008750436378 ] } }
,
{ "type": "Feature", "id": 59, "properties": { "ObjectID": 60, "Loc_name": "EU_Street_Addr.NLD_Streets", "Status": "M", "Score": 100, "Match_type": "A", "Side": "L", "X": 6.90080527128, "Y": 52.1947515751, "Match_addr": "Vastertlanden 167, Enschede, 7542", "Country": "NETHERLANDS", "Admin_Name": null, "ARC_Addres": "Vastertlanden 167", "ARC_City": "Enschede", "ARC_Postco": "7542LR", "ARC_Countr": "Netherlands", "Name": "Vastert, Het OBS", "Type": "Openbaar", "capacity": "260", "address": "Vastertlanden 167", "Postcode": "7542LR", "City": "Enschede", "Country_1": "Netherlands" }, "geometry": { "type": "Point", "coordinates": [ 6.900805271765819, 52.194751575213616 ] } }
,
{ "type": "Feature", "id": 60, "properties": { "ObjectID": 61, "Loc_name": "EU_Street_Addr.NLD_Streets", "Status": "M", "Score": 100, "Match_type": "A", "Side": "L", "X": 6.8572838157, "Y": 52.198152648200001, "Match_addr": "Bats Hoek 5, Enschede, 7546", "Country": "NETHERLANDS", "Admin_Name": null, "ARC_Addres": "Batshoek 5", "ARC_City": "Enschede", "ARC_Postco": "7546LC", "ARC_Countr": "Netherlands", "Name": "Wielerbaan, De OMBS", "Type": "Openbaar", "capacity": "300", "address": "Batshoek 5", "Postcode": "7546LC", "City": "Enschede", "Country_1": "Netherlands" }, "geometry": { "type": "Point", "coordinates": [ 6.857283816027689, 52.19815264745182 ] } }
,
{ "type": "Feature", "id": 61, "properties": { "ObjectID": 62, "Loc_name": "EU_Street_Addr.NLD_Streets", "Status": "M", "Score": 100, "Match_type": "A", "Side": "L", "X": 6.90046609122, "Y": 52.2099237535, "Match_addr": "Hendrik Smelt Weg 44, Enschede, 7541", "Country": "NETHERLANDS", "Admin_Name": null, "ARC_Addres": "Hendrik Smeltweg 44", "ARC_City": "Enschede", "ARC_Postco": "7541XL", "ARC_Countr": "Netherlands", "Name": "Wilmink, Willem OBS", "Type": "Openbaar", "capacity": "310", "address": "Hendrik Smeltweg 44", "Postcode": "7541XL", "City": "Enschede", "Country_1": "Netherlands" }, "geometry": { "type": "Point", "coordinates": [ 6.900466091563146, 52.209923753883515 ] } }
,
{ "type": "Feature", "id": 62, "properties": { "ObjectID": 63, "Loc_name": "EU_Street_Name.NLD_StreetName", "Status": "M", "Score": 100, "Match_type": "A", "Side": null, "X": 6.87025509956, "Y": 52.193925064, "Match_addr": "Het Bijvank", "Country": "NETHERLANDS", "Admin_Name": null, "ARC_Addres": "Het Bijvank 107", "ARC_City": "Enschede", "ARC_Postco": "7544DA", "ARC_Countr": "Netherlands", "Name": "Windroos, De", "Type": "Katholiek", "capacity": "225", "address": "Het Bijvank 107", "Postcode": "7544DA", "City": "Enschede", "Country_1": "Netherlands" }, "geometry": { "type": "Point", "coordinates": [ 6.870255099183737, 52.193925064094458 ] } }
,
{ "type": "Feature", "id": 63, "properties": { "ObjectID": 64, "Loc_name": "EU_Street_Addr.NLD_Streets", "Status": "M", "Score": 100, "Match_type": "A", "Side": "R", "X": 6.92379856976, "Y": 52.216768096, "Match_addr": "Celsius Straat 10, Enschede, 7535", "Country": "NETHERLANDS", "Admin_Name": null, "ARC_Addres": "Celsiusstraat 10", "ARC_City": "Enschede", "ARC_Postco": "7535DK", "ARC_Countr": "Netherlands", "Name": "Wooldrik, Het OBS", "Type": "Openbaar", "capacity": "180", "address": "Celsiusstraat 10", "Postcode": "7535DK", "City": "Enschede", "Country_1": "Netherlands" }, "geometry": { "type": "Point", "coordinates": [ 6.923798569039434, 52.216768096348176 ] } }
]
}
